[{"key":"omaha","latitude":41.25239944458008,"longitude":-95.99800109863281,"name":"Omaha"},{"key":"san-francisco","latitude":37.774898529052734,"longitude":-122.41899871826172,"name":"San Francisco"},{"key":"sao-paulo","latitude":-23.573299407958984,"longitude":-46.641700744628906,"name":"Sao Paulo"},{"key":"south-carolina","latitude":33.0723991394043,"longitude":-80.03890228271484,"name":"South Carolina"},{"key":"taipei","latitude":25.105499267578125,"longitude":121.59700012207031,"name":"Taipei"},{"key":"tokyo","latitude":35.68450164794922,"longitude":139.75599670410156,"name":"Tokyo"},{"key":"charleroi","latitude":50.411399841308594,"longitude":4.444479942321777,"name":"Charleroi"},{"key":"new-york","latitude":40.714298248291016,"longitude":-74.00599670410156,"name":"New York"},{"key":"frankfurt","latitude":50.11669921875,"longitude":8.683300018310547,"name":"Frankfurt"},{"key":"seattle","latitude":47.614498138427734,"longitude":-122.3479995727539,"name":"Seattle"},{"key":"dallas","latitude":32.77870178222656,"longitude":-96.82170104980469,"name":"Dallas"},{"key":"los-angeles","latitude":34.06740188598633,"longitude":-118.24199676513672,"name":"Los Angeles"},{"key":"new-jersey","latitude":40.55160140991211,"longitude":-74.46369934082031,"name":"New Jersey"},{"key":"paris","latitude":48.93330001831055,"longitude":2.3666999340057373,"name":"Paris"},{"key":"silicon-valley","latitude":37.33380126953125,"longitude":-121.89199829101562,"name":"Silicon Valley"},{"key":"sydney","latitude":-33.86149978637695,"longitude":151.20599365234375,"name":"Sydney"},{"key":"amsterdam","latitude":52.349998474121094,"longitude":4.9166998863220215,"name":"Amsterdam"},{"key":"atlanta","latitude":33.749000549316406,"longitude":-84.38800048828125,"name":"Atlanta"},{"key":"miami","latitude":25.812400817871094,"longitude":-80.24009704589844,"name":"Miami"},{"key":"portland","latitude":45.77880096435547,"longitude":-119.52899932861328,"name":"Portland"},{"key":"singapore","latitude":1.2930999994277954,"longitude":103.85600280761719,"name":"Singapore"},{"key":"chicago","latitude":41.86320114135742,"longitude":-87.61979675292969,"name":"Bangalore"},{"key":"Bucharest","latitude":51.514400482177734,"longitude":-0.0940999984741211,"name":"Atlanta"}]
